,id,name,latitude,longitude,free_bikes,empty_slots
0,01f5011f76069b1e81a11d4d51dd9d1d,377 - Metro Abrantes,40.38091762,-3.72783615,8,15
1,025b1722c61309b46f4f3833c05d96a2,507 - Seis - Sexta,40.44845033,-3.5965029500000005,19,5
2,0293685e90e89cbd15dfb4ae7db3551e,192 - Avda. de los Toreros - Fco. Silvela,40.431826464468664,-3.6714677183853106,10,16
3,02c587332ef68d67fa22a21b242fd857,333 - Illescas - Camarena,40.392175,-3.7562323,9,14
4,03616e7fc57d3e370fb9126349925d27,3 - Plaza Conde Suchil,40.4303223,-3.7072537000000003,12,7
5,03f33f7f29d1c6baddeffc240c7dce2a,151 - Orense 12,40.44881224951987,-3.695359265012366,15,12
6,03ffff04a43ff9d80d751e07d3faf8a7,574 - Chantada,40.472695,-3.7106779999999997,8,15
7,04151db362cd348bd69553fd445ab165,267 - Paseo de la Chopera - Fernando Poo,40.39500000000003,-3.700399664723874,12,11
8,0421375b66b9538e3622294004e486ea,391 - Junta Municipal Distrito de Usera,40.3817026328731,-3.711296220901499,10,13
9,045f23753c9948fb2942c8758f82c9b4,434 - Charleroi - Cocherón de la Villa,40.38191654,-3.6321937200000005,16,8
10,053356682797aad665aaa611520dee60,560 - Playa de Zarauz - Playa de la Caleta,40.4731404,-3.5906847,10,13
11,0542240f2d949ee369ca4dbd1805603c,4 - Malasaña,40.4286259,-3.7025,27,2
12,0669ab60bdcbe696e4fd80d634dc0753,164 - Paseo de las Delicias - Tomás Bretón,40.39723,-3.69461,12,14
13,0688dc6b7492e29793c6cc6bb1974a6e,12 - San Hermenegildo,40.4284667,-3.7061405999999995,21,6
14,06b66d970d1f1dfa2ab4bf46b00186a6,291 - Plaza José María Soler,40.45866532,-3.66790332,10,12
15,0767386731d76c7db66ed2b073c6b540,273 - Delicias - General Lacy,40.40381914,-3.6909183100000003,4,15
16,07917657d70ca9cad36e6d64aebd4bc7,"328 - Cebreros, 97",40.4032379,-3.7521916999999996,5,18
17,085600da09c0d014cc8c2ea307b290cb,120 - Metro Palos de la Frontera,40.403090451430614,-3.6948251018524214,27,1
18,08992128d0e8466b9989b6afbd88b7bb,150 - Castellana - Hermanos Pinzón,40.4491,-3.6908,10,12
19,08edb2920d275afbfbf92b70d7cc4d34,69 - Parque del Retiro - Puerta Ángel Caído,40.409808,-3.688822,7,20
20,096421580f355d3cdaafd90948ef579d,"407 - Carmen de Burgos, 4",40.3575459,-3.6847883,9,14
21,09d52bf750fa35f9f05186a639cde834,189 - Virgen de la Alegría,40.4351256,-3.6554918000000005,20,3
22,09d8b4be88f3e3e065d00d4875d2c841,"455 - Luis de Hoyos Sainz,  198",40.400094,-3.6292746499999997,11,12
23,0acde392b92f94e6df9915fe96ea3b24,59 - Plaza de Juan Pujol,40.4255495,-3.7043418,4,15
24,0b3551afdcc49579fada7a02ff562c0f,252 - Est. tren Chamartín - Clara Campoamor,40.4717403,-3.6839695,10,13
25,0b70c99e5bf72f55380046a68fef8998,"405 - Paseo Alberto Palacios, 42",40.3449259916087,-3.7129039644180377,8,15
26,0b965957e7c11306aa067a4ab04b0149,373 - Metro La Peseta,40.36277848,-3.75787005,5,17
27,0badd04ebb2c22f968eb6d8c9d1401b0,183 - Hermosilla - Doctor Esquerdo,40.425635,-3.6693389999999995,12,11
28,0c4e27a6bd095fbc716b52921fa03dd1,"420 - Candilejas, 5",40.38263599,-3.6630038299999996,15,8
29,0e6a261b9b73119b4574dffcccaa5fc8,526 - Plaza del Liceo,40.45754368,-3.64441924,6,17
30,0efb8f4f904604e1aab87db03267c9d1,137 - Plaza de la República Argentina,40.4454477,-3.6853377000000003,11,13
31,0f05093087f40f395206b3a68e533263,513 - Centro Deportivo Mpal. Pepu Hernández,40.4271211,-3.6064541399999994,11,16
32,0f0dfbff2ae09ce4d0856b13ca2dcc5e,419 - Estación de tren de El Pozo,40.3762374,-3.655868,12,15
33,0f6c92c95b38cc123c2cc9fc13387c03,475 - Aurora Boreal - Minerva,40.399236,-3.603668,15,7
34,101ae6363d4a4f1fb301607dd4e4365a,"174 - Paseo de las Yeserías, 45",40.39742958306358,-3.7065258846557603,15,12
35,105315e2fc06f2f1351e56a0ed37ea98,203 - General Ampudia - San Francisco Sales,40.44175,-3.7144722,11,13
36,10870e3816bf02164ca079b2f3cdfdaf,615 - Avenida Juan de Andrés 21,40.468732,-3.7227890000000006,10,13
37,10aa5078c8232a0fe816f0affb26bcd1,518 - Tampico - Plaza Barbados,40.444569,-3.6353449999999996,9,14
38,10f38a9684983074fdc46a7f2ba08815,101 - Metro O'Donnell,40.4230771,-3.6696803999999994,15,9
39,120b278034c551dc29e80abd19d56b4d,237 - Acueducto de Amaniel,40.4516819,-3.7102736,15,9
40,1274b603cdb1ba7faf81e382e17dbddb,411 - Estación de tren de Villaverde Alto,40.3417533,-3.7118182999999996,11,12
41,12d5e458d5553bd8cf210f2e470a5056,247 - Zurbano - José Abascal,40.43837,-3.69281,18,4
42,12dbb772c10e5ae08bb773364996230d,514 - María Sevilla Diago,40.43283006,-3.6109507700000005,13,10
43,12e96e65e52744322513f4f03005ffe8,342 - Osa de la Vega - Rafael Finat,40.374979,-3.7733810000000005,28,0
44,13d83260233f80ace1144f4a05f07dca,265 - Puerto Serrano - Embajadores,40.385412,-3.6884609999999998,13,10
45,15112516ddb0067d95c8eb468a2833dc,416 - Ramírez Tomé,40.38875618103898,-3.645973936176305,16,10
46,1523ded287e94fb13ce2749ee1b2c002,"284 - Avenida de Burgos, 17",40.473593878889254,-3.6757900294303902,14,9
47,152918f1c4abbdb9945c6a8cbcc0bf67,107 - Serrano - Conde de Aranda,40.42156087297841,-3.6883841104507464,11,11
48,1543c9069d5eff57af60b48e305b4e36,368 - Eugenia de Montijo,40.3791024,-3.7470606799999997,8,7
49,155e255129d345c5b815b3b2309e6014,442 - Santa Eugenia - Zazuar,40.38305936,-3.60463,3,24
50,1597d3086f6b7c362aa7627acf59f255,200 - Metro Quevedo,40.43375360585919,-3.7045789811585412,14,10
51,15a5f7de489fbb8361f7712ceafb8b62,259 - Metro Ciudad Universitaria B,40.44270528449462,-3.726752004160312,10,9
52,15a868a2263d1abe49400f677a802934,449 - Metro Congosto,40.37286701,-3.6186910599999997,16,6
53,170522d7fa95743cf1617bf75ca3398e,"444 - Valderrebollo, 18",40.3743481,-3.6276352,11,12
54,1744486cb4421b1f67932f7a146a2e1a,26 - Plaza de las Salesas,40.4239,-3.6945,7,18
55,17809b590a7b738cde081f2e340d23c6,624  - Avenida Blas de Lezo 33,40.407067,-3.553002,11,11
56,179ca8264c02a9c11c712e4a232c1a5d,"533 - San Luis, 23",40.47148748,-3.6551145499999995,4,19
57,17a36e98e660e36f770cbba131e7910e,307 - Metro Valdezarza,40.46588016,-3.71693008,13,10
58,17a62f440d0b87cc2eeb9b6055f218d9,374 - Dinero - La Peseta,40.3625707,-3.7501466,6,20
59,17c9803bdd1a1663d9db856415333a35,85 - Parque del Retiro - Puerta de O´Donnell,40.4213143,-3.6798909999999996,17,10
60,17e964dc5de1d0db20a72df81bdab7cf,197 - Parque de Berlín,40.4516059,-3.677916,6,16
61,182d26b1ac3ab79d7231c5b4b1708de0,355 - Intercambiador de Plaza Elíptica,40.3854641,-3.7182338,5,18
62,18748a352393519a2b8581ce0f993c79,591 - Metro Mirasierra,40.49108225,-3.7162292099999994,7,12
63,1975a6b914b51d8950d6e237d229c18d,562 - Tomillar - Tintín y Milú,40.46267435,-3.5840557299999998,7,20
64,1984d407925b0cdf233b1ef540dd599f,585 - Metro Fuencarral,40.4954662,-3.69374813,12,12
65,1afd66316b5d91ee9638b9f6ae7ed833,365 - Palacio Vistalegre Arena,40.38537202,-3.7372590799999994,7,16
66,1b7a17184516ede7820764135bbb1871,91 - Hermosilla - General Pardiñas,40.426049,-3.6786285,12,9
67,1c97392d9622cf39de09655b8cfc3014,565 - Metro Barajas,40.47563573,-3.5838869,9,14
68,1d214181a7b761bfb4864753e9c1692d,418 - Puerto de Arlabán - San Diego,40.3864,-3.6674999999999995,19,8
69,1de4147d7d9f258504b72020a57d5a12,111B - Metro Moncloa B,40.433913,-3.7177433999999994,12,10
70,1e0e8689fdfe02b321ccd02688943a8c,124 - Metro Bilbao,40.430969,-3.6993695,19,8
71,1e24df17b46a47b98e962c26f09ff144,204 - Doctor Santero - Bravo Murillo,40.4476488,-3.7040397,15,8
72,1ea0012878a8c7dbe462606ed933ab1e,604 - Metro Las Tablas,40.50910428,-3.6695521499999995,5,18
73,1f1706314f37508b2538955f0bb3fc8a,592 - Estación de tren de Pitis,40.4956969,-3.7249527,10,17
74,1f2c6a663009a4da061a71417dd15b6e,226 - Sierra Toledana - Camino de Valderribas,40.39901531507069,-3.6607768678037744,9,14
75,1f4d02b8a6c90065c9f07cc29559c794,258 - Metro Ciudad Universitaria A,40.444311,-3.7269389999999993,12,12
76,1f4f1b7cc33974b689a4e7bc6eca0948,320 - Metro Lago,40.4167792,-3.7345247000000006,11,8
77,1fa9302aab08ea982b2ecd784d3d115e,"387 - Isabelita Usera, 44",40.38272256,-3.7077397199999997,18,5
78,209e2479235f634fc578a9a31b484ac3,"451 -  La Granja de San Ildefonso, 14",40.36813427,-3.62283116,17,9
79,20a79ab84160ac509f09081ab8181e2c,439 - Cabeza Mesada - Parque de Valdeperdices,40.37647902,-3.6294129999999996,14,12
80,217bde84b1fc8453887c815a0e45cbfe,127 - Mercado Municipal de Vallehermoso,40.4338516,-3.708439,22,4
81,21f8c6aa214fdd9a15f0c4a78574bd10,257 - Ciudad Universitaria - INEF,40.438873,-3.7305269999999995,6,17
82,22115aae27d7bff90134cd4dab0b03ff,602 - Monasterio Sobrado - Monasterio Silos,40.5093225,-3.6928369999999995,12,13
83,221a20d040d7c7ec80d5ed67eaf08936,185 - Parque Quinta de la Fuente del Berro,40.4250833,-3.6615277000000006,8,15
84,222c7fdef5cff851a628be5399a15fb9,"276 - Paseo de las Yeserías, 15",40.39900539,-3.7099166,17,5
85,228d96336bcfbc3727f730a071640fa5,156 - Sor Ángela de la Cruz-Paseo Castellana,40.4592351,-3.691533,6,18
86,232b8e2d9b87f0ebc9198b449201ae19,72 - Metro Sáinz de Baranda,40.4159,-3.6696000000000004,16,7
87,2397722d709010a50191011a57ab999a,558 - Biblioteca Pública Mpal. Gloria Fuertes,40.461137,-3.5937120000000005,6,17
88,24be73dcd5720c09372c855110bb2eaa,286 - Plaza Duque de Pastrana ,40.4679,-3.6778999999999997,11,12
89,2610621f87c11fd014446887e83b5e52,214 - Condesa de Venadito - Albacete,40.4434316,-3.6569031,8,16
90,2641214ec2e2016fab81afced88224bb,221 - Metro Pavones,40.400492026660594,-3.6347444787322485,15,7
91,267772096c65264453838b6648f22338,268 - Metro Arganzuela-Planetario,40.39338327980599,-3.689031463575172,18,5
92,2717cf56a0247a361f3bd0e7f1f57bea,379 - Antonia Rodríguez Sacristán - Valeriana,40.37313777,-3.74765739,11,13
93,27289fb0242067a8071b9053df0010a1,49 - Casa Encendida,40.4060533,-3.6992774,12,15
94,27b3887834615202a41f2587c1d072c2,188 - Puente de Ventas,40.4312562,-3.6590286000000005,16,11
95,27bea4e595b9f255a6f09b71395498f7,360 - Ntra. Sra. Fátima - Ntra. Sra. de Luz,40.3840155,-3.7470882000000003,13,9
96,27e697d9db2db9508c61968362cc1714,231 - Derechos Humanos - Verdaguer y García,40.4398283,-3.6557193,13,11
97,28d6a77764f7344a2cfd24aac7e7eb84,522 - Metro Estadio Metropolitano,40.43333298,-3.60097542,6,18
98,291e851bd2ad42de4f7a1bab0764bc72,"534 - Mesena, 102",40.46772408,-3.6634063399999994,13,12
99,2954fe1eb09c687cdb7c29ce57848460,254 - Plaza del Perú,40.461,-3.6765599999999994,18,5
100,2a8c8298fcd7ad982dc3740ba8ed9627,406 - La Nave de Madrid,40.3486,-3.6960817,9,14
101,2c639b1cdbbc7fb4a56b773c19d0322e,607 - Metro Ligero - Palas de Rey,40.5051915,-3.6641571,8,19
102,2c7a394e3cd2fc1ad02904733f75e60b,600 - Centro Deportivo Municipal La Masó,40.4825507,-3.7149566,9,15
103,2cb6b6f412a73a0e4123fd78dff1a97b,15 - Norte,40.4262383,-3.7074453,2,17
104,2d2c091862e73046d9cb38b942c5cff8,248 - Sinesio Delgado - Cuatro Torres ,40.4743209,-3.6879973,6,21
105,2db0fc658a2d0e4fa5e9bb80fe5bc712,610 - Bardegueral,40.4501721,-3.7719096999999997,4,19
106,2db7ba863a110f551ac6a95fc33f4d08,467 - Univ. Rey Juan Carlos - Facultad  CJS,40.4062361,-3.6084888,13,10
107,2df75400a4f283999fc87f39f3bbde88,71 - Plaza del Doctor Laguna,40.4161,-3.6739,5,18
108,2e175e4613adf44134fda53c82f326f5,"559 - Calle Babilonia, 19",40.4675299,-3.5882346999999997,16,7
109,2e296a5773dd1224c28ed9d990f1ac2b,162 - Metro Pirámides,40.4034968,-3.7105765,2,21
110,2e6c66618b818902148b3d807f361962,436 - Campus Sur UPM,40.3901675,-3.62713659,10,13
111,2f3a5ff4d244a1f2a08cadf118a3ab0c,178 - Junta Municipal Distrito de Retiro,40.4029202,-3.6788343,10,14
112,2f4cd4d4835afe673017731a29cb7cd1,80B - Estación de Atocha B,40.4075211,-3.6904748,13,14
113,2f70598cb7dcee0c8da33e8837891f07,575 - Metro Barrio del Pilar,40.47817,-3.703526,11,12
114,2fce414c83cb16b63a1875e1f9fac517,340 - Illescas - Seseña,40.3970983,-3.7656975999999998,13,14
115,2fcfc030a0d125e8f761079849470343,345 - Fuente del Tiro - Avd. de las Águilas,40.38308791,-3.7798000999999997,9,15
116,30413be299ae8fcd531e07b6c0906ac5,"450 - Camino de las Hormigueras, 161",40.3762555,-3.6370762,17,7
117,3094cb94dd4daaa4a0209a2ab9bcb276,"515 - Avenida de Hellin, 13",40.43091667,-3.61579967,16,8
118,30d2e2d12f11fb71285e4e8f7cee881b,262 - María de las Mercedes de Borbón B,40.4928683,-3.620114,9,14
119,312c7655bf81a6f99c52654ab174bd0e,566 - Avenida de Logroño,40.4703472,-3.5815033,2,22
120,3136bd21e72e8e16df569a2dd945e218,321 - Metro Casa de Campo,40.40316,-3.7610509999999997,11,15
121,317ec4481835fb557cba20ad7292443a,472 - Metro Valdebernardo,40.3987974,-3.6211484999999994,20,7
122,326a48d7670e7fb0c1a363e265bb8c1f,612 - Calle Rosalia de Castro 1,40.480258,-3.734639,15,8
123,32bd937191c6c99e95655335a40c3bc1,"378 - Eugenia de Montijo, 83",40.37562288,-3.7509732999999996,11,13
124,32cbbbab1e6465dc44eadf2c05a6aab1,564 - IFEMA B,40.463861,-3.6138669999999995,2,20
125,32cf1784dae9bffb36cc6bf626b6e7a1,140 - Velázquez - López de Hoyos,40.4387566,-3.6830583,18,10
126,331c843791acee27cae7e4bc9846d03d,490 - Hnos.García Noblejas-FcoLargo Caballero,40.42427523,-3.62888094,12,11
127,331c8785c9b459be35e97b6d20025113,269 - Ariel - Parque Enrique Tierno Galván,40.393023802369754,-3.6797017663398797,14,10
128,3333ee0e896081ff559fbf98a30481d8,"152 - General Perón, 4",40.4525,-3.6989,13,9
129,337761b4426d9ce7c6d946489cccd112,272 - Tejo - Parque La Ronda,40.39663,-3.679186,7,16
130,3497d1150d136076514d165d17d1e645,617 - Calle Eduardo Barreiros,40.358866,-3.7023800000000002,9,14
131,34f4041da12cf5fdde92aa021abafae5,294 - Edificio Torres Blancas,40.440944,-3.6723389999999996,17,7
132,3521bea646462c5565943c8c1a57ccf7,429 - Carlos M. Alvarez - Javier de Miguel,40.3895,-3.6635,16,7
133,36172e9b459c1ced790698926714b4a3,589 - Monast. Silos - Monast. Montesclaros,40.50340494,-3.70290315,10,14
134,3632976a0d6dada889cf7d772115a68a,448 - Metro Las Suertes,40.363376,-3.5993520000000006,6,21
135,364ee5e559203b6db6fa87180ccf820d,"463 - Casalarreina, 18",40.40939089860396,-3.612318798052458,4,20
136,3659d06f89c62bf5e281e75a9698aa8b,590 - Metro Arroyofresno,40.49093014,-3.72757227,11,16
137,36794206be5a1202a7645b5a2395ee7e,123 - Metro Argüelles,40.4306458,-3.7133412,11,16
138,36fc828d7fe408cc431e758c9e4c65d6,445 - C. Deportivo Mpal. Juan de Dios Román,40.36334587,-3.6050356400000005,16,11
139,374c75de3c3437ebec17bf8118acbc85,376 - Metro Carpetana,40.39229225,-3.7405438000000006,7,17
140,3789b5a5580316ad4041be660628848a,399 - Bohemios - Gigantes y Cabezudos,40.356536,-3.6939009999999994,14,10
141,37b852f8d08eaf0daeb3f7a6b00b5a1c,430 - Torremolinos - Rafael Alberti,40.38500948,-3.6417899899999995,13,11
142,38479b4c9d8411a81453613d2f58f0bd,285 - Santa María Magdalena - La Drácena,40.4631,-3.6706,17,6
143,386b55b94b5a313b8ea9b8d17793feec,380 - Oca,40.3894333,-3.7335492000000006,16,8
144,387f919de5e89408d2b72c36136f80ad,381 - Alfredo Aleix - Mercedes Rodríguez,40.3684767,-3.7553916,15,8
145,38ce353fb9ed5201a52f33c0661e9f44,453 - Metro La Gavia,40.37043968,-3.61253028,13,14
146,396576952878b76f53cd00fce10ec46d,572 - Junta Mpal. Dtto. Fuencarral - El Pardo,40.47810429,-3.70997335,2,4
147,39afd4ff092248bf0f470e2259488719,563 - Soto Hidalgo,40.4606465,-3.5820745,11,16
148,39d183b32498c983ca2897819f84760d,356 - Portalegre - Tinamús,40.38937686,-3.72364769,11,13
149,39dde5332ebd20ce287255aed6cdb42a,465 - Cordel de Pavones - Bulevar José Prat,40.397375,-3.619645,10,14
150,3a07da5630da7a0a0b26895c111853bc,172 - Estación de tren de Delicias,40.4008279,-3.6934925999999995,20,2
151,3a24af196a30137f48cb2ac73b199dea,62 - Hospital M. Infantil Gregorio Marañón,40.4213148,-3.6724968,15,12
152,3a86036142a1936c5cc685aee13414d6,220 - Plaza del Encuentro,40.406156,-3.651384,8,15
153,3accaf9e0ef85e6142a544f1a8810549,310 - Estación de tren de Aravaca,40.4490509,-3.7845536000000006,3,20
154,3ae4db9c0dd5e831de06bfdb65a61caf,398 - Orovilla - Felicidad,40.3587,-3.6895,6,21
155,3b80f15a76f41e270e4334ec505b29a6,283 - Museo Nacional del Prado,40.4152082,-3.6919057,7,15
156,3d0b8ef634692746e5d893b833f803b4,300 - Capitan Blanco Argibay - Alfalfa,40.4667435,-3.7031881999999996,11,13
157,3d3ffc63ae3bab538bcd623a79bbb3d9,278 - Paseo los Pontones - Ps. Melancólicos,40.4040433,-3.7196,12,11
158,3df91310e0919bc375606b54000a6f64,425 - Ramón Perez Ayala - Pque. Cerro Tío Pío,40.40003472,-3.65381017,15,7
159,3edc2d4c5e978a213d1bed3e01b4527c,496 - Cronos,40.4384695,-3.6194333,21,7
160,3f4bcb46682504627d63e9516ac7560d,290 - Francisco Suárez - Paseo de La Habana,40.46437817,-3.6799441599999994,13,10
161,3fa0a001b00a46c387c507aaf8141812,46 - Ribera de Curtidores,40.4053153,-3.7071258999999994,18,9
162,3fd1a714478d11d5109d549d95d40c82,158 - Alberto Alcocer - Padre Damián,40.45869,-3.6846250000000005,10,13
163,3fdda2d9c6d7f9597083248123d60ee6,"353 - Mercedes Arteaga, 21",40.39251608002938,-3.7222175704754585,10,14
164,401f3d6c3ee9cba6df6f883c4226411a,40 - Conde de Romanones,40.413778406369765,-3.7047949666162405,14,8
165,420e058b43fddf6c1f11fd5d1c16a16c,250 - Serrano - CSIC,40.4406491,-3.6858096,13,14
166,421da0706e9c65800dc8a9d8abe4f80d,88 - Velázquez-Padilla,40.4313576,-3.6838303,7,16
167,43007eccb46bc0895703e76966d34341,536 - Boj,40.4560204,-3.6180818,6,17
168,43250f8ff4ce50f7f47eadd6ad2a488d,543 - Tomas Redondo,40.47178414,-3.6291380199999996,4,19
169,43531742325d6e5f10faef6595870f6a,383 - Metro San Fermín-Orcasur,40.3700017,-3.6939702000000003,7,16
170,437ea93c9316a96c66bfe3f603209c09,319 - Valdesangil,40.4684218,-3.7166729,13,11
171,438d4a466ecf5de6cafb9bbb4d00d941,485 - Francisco Villaespesa - Ledesma,40.4293263,-3.6464629,12,11
172,43f2751a2daba871eb6693e2bb3e2afb,13 - Conde Duque,40.4273,-3.7104999999999997,19,3
173,45481c523c2d8af3aed9999658f60046,243 - Cartagena,40.43503,-3.6701200000000003,10,12
174,45a6e170315181179d616c8dc5b72222,56 - Plaza del Carmen ,40.4190322,-3.7039032999999995,0,0
175,46c37684079c9cd21fcdfa6aa9cfbc30,397 - Centro Deportivo Municipal Orcasur,40.36809336,-3.6983803799999997,15,9
176,46ef3a7c5828041713390b9ac240202f,358 - Verdad,40.391787,-3.7171600000000002,22,1
177,47016887b20487cd19e7d61b3f7d18df,50 - Museo Reina Sofía,40.4083684,-3.6933462999999995,18,6
178,4729ebb0f1d044f5c0ce1b0a95b1503a,318 - C. Deportivo Mpal. José María Cagigal,40.43205131007265,-3.7370276473602226,21,2
179,4776704edbd9c2304b5744e788c5f1b3,503 - Zaldívar - Valdecanillas,40.43209033,-3.62650373,18,6
180,4899ed043d7a79f7de07fa8ea491f52d,298 - Marques de Viana - Bellver,40.463643,-3.704478,12,7
181,48db345929c95dac1ea015ae1e18849f,75 - Parque del Retiro - Plaza Mariano Cavia,40.4082717,-3.6784749,12,15
182,490a24791dbdd31b84ef84fc10bbdb42,400 - Metro Ciudad de los Ángeles,40.36064659,-3.69399661,8,15
183,493f14de2b74bd51a0bf8db762bbd398,323 - Centro Deportivo Municipal Gallur,40.3984,-3.7359,20,3
184,4a615b449c697d8b5b1bb08626690d87,166 - Viaducto de Segovia,40.41390473235381,-3.713377023313513,16,9
185,4a8389a1c20b36d81c8944f7c6b10541,103 - Ortega y Gasset - Serrano,40.43053,-3.6867439999999996,11,12
186,4a9cd0235e7bf9811574ca5710e1c9c0,479 - Metro Arturo Soria,40.45478362295884,-3.655837131282797,6,20
187,4aad1f50ac580c10c46e2bd1336a4645,16 - San Bernardo,40.4229374,-3.7074808485065,13,5
188,4b000fede33c5dbdbf132e41db680b36,595 - Betanzos - Fermín Caballero,40.48178815,-3.7132206,8,16
189,4b54bcc0857a4b6cdf278478d6cf4c8f,413 - Doctor Martín Arévalo,40.345928,-3.707413,19,6
190,4b7f80a41154cb64a8146018507f2731,473 - Villablanca - Parque Forestal Vicálvaro,40.40500033,-3.59888007,19,8
191,4b817b917c3139334cc436d566e07509,8 - Metro Alonso Martínez,40.4278682,-3.6954403000000005,18,5
192,4b839f403f3c67b6eb90eea5c9e18f57,598 - Hospital Ramón y Cajal,40.4858012,-3.6923396,5,19
193,4c244b893bcc4b749c8d6ba3d1631220,437 - Metro Sierra de Guadalupe,40.38135158,-3.6237645700000005,8,19
194,4c371246ac28f81125f3d1751d3de8ae,583 - Ángel Múgica - Marcos de Orueta,40.48468297,-3.68529048,9,15
195,4c73f0daf6a8512a0bf37904832995a2,11 - Plaza del Dos de Mayo,40.427,-3.7036,12,11
196,4caf474f3d46197a178b0371d2f7847f,582 - Isla Graciosa - Isla de Java,40.49262243,-3.6862657,18,6
197,4d0cc6c8c689e473d2a07e05190bad22,219 - Camino de los Vinateros B,40.4083593,-3.6467337999999994,4,14
198,4da9a6e713899f67b379a5c72d18004b,277 - Virgen del Puerto,40.411622,-3.7211780000000005,14,1
199,4de20f43c594d115a64d52f1eeb1235d,147 - Doctor Arce 45,40.4484,-3.6794000000000002,11,11
200,4e9c0860f9b9ca7f371ef68129f4eca8,5 - Fuencarral,40.4285212,-3.7021354,14,12
201,4ef1fef9858e1fd2fc5dbb1348ae5034,274 - Estación Sur Méndez Álvaro A,40.39675755,-3.6813434600000003,7,16
202,4f18a008b8c78e8abc19cc26c5e85a56,554 - Metro El Capricho,40.453,-3.5940999999999996,19,7
203,4fb85ed167da3f0d19ea11bd4dfd4d7e,605 - Nuria - Peña Sirio,40.491644,-3.7048829999999997,8,16
204,503d4c35fdfedf89385997ad9f2f239c,"623  -  Ronda del Sur, esq Santa Rafaela",40.37773,-3.6731049999999996,14,6
205,5087d38de417f3852a6d240ca910581e,227 - Arroyo del Olivar,40.39382977920336,-3.665936242935637,9,14
206,50ead9be257cd4266220df79c6b4d9db,148 - Serrano 210,40.451117,-3.6813971,16,7
207,510c8953225b29f6ee9b7139760c1a0b,116A - Plaza de España - Martín de los Heros,40.4236775,-3.7130447,5,13
208,51b61f73de35ee39e92f94577dd51b7b,111A - Metro Moncloa A,40.4336027,-3.7175248000000005,10,13
209,5218d3a0f52ad565592e8233a9175495,153 - General Perón - Poeta Joan Maragall,40.4523,-3.6935999999999996,3,20
210,52438e7b4e231e1960aa19be6edc7fb3,296 - Costa Verde,40.469477,-3.696862,8,15
211,5280884a28374e31503a94afdcf35659,106B - Plaza de Colón B,40.424776,-3.6878899999999994,9,10
212,52b369909bca9d4c8bc9d6e704480b0b,"529 - Lopez de Hoyos , 478",40.47175,-3.649843,12,11
213,538f7ef7eab76b10c16bf8c1767ab768,"336 - Calle Oliva de Plasencia, 1",40.37850071,-3.7791518300000004,16,7
214,53fc556df591920957053909de8eeeb7,100 - Wizink Center,40.42478,-3.6738400000000007,13,14
215,54e904351619672558a0a7c4c6ffbf73,53 - Plaza de Lavapiés,40.40830870823806,-3.700754126389314,6,17
216,556e3f6f003a8a999c3c95872cc2e977,606 - Fermín Caballero - Sangenjo,40.487363,-3.6984849999999994,9,14
217,55a618a12ce76d28b82343f2c60d6693,7 - Hortaleza,40.4251906,-3.6977715000000004,15,4
218,5606e87c4a7a67174260a14befd6aa2d,"417 - Romeo y Julieta, 13",40.37873799,-3.6621756300000006,16,9
219,56358e9aacbeef2ad3b17cb66d377355,109 - Marqués de Salamanca,40.4301245,-3.6814521000000004,14,10
220,5644c6a5b17be735618afe71d9ec97e8,539 - Mota del Cuervo,40.4648762,-3.6313571499999995,13,11
221,564c4f498be90f66acaa71dc1daa103a,242 - Metro Parque de las Avenidas,40.439513,-3.6629280000000004,13,10
222,56cb796d462a82895caeb99001130499,215 - Gutierre de Cetina - Ascao,40.429588,-3.6408092999999995,10,13
223,589906b49d069f96ee8395e11f5d632c,460 - Fuente Carrantona - Doctor García Tapia,40.4070216,-3.63192261,12,15
224,58faa3c6cd393fbc00cbba9df1ab118d,128 - Metro Islas Filipinas,40.4392,-3.7154,12,11
225,5998d6e4a96bbf27d8acf36358a4dc9d,588 - Campo Calatrava - Rda Ingenioso Hidalgo,40.50052161,-3.69112254,9,17
226,5a90b00e5cac012a9e90b162d56e03c9,58 - Metro Chueca,40.4222783,-3.6978583000000005,12,15
227,5ab73669d29b38d8f9176ab73013328d,61 - O'Donnell - Narváez,40.4214551,-3.6753139,20,9
228,5bb4f3d9ae106bd4013b48f9b4474568,"594 - Pedro Rico, 49",40.48194,-3.7039180000000003,4,20
229,5bc1009f1e03d4c1b7f11de774302190,"372 - Lonja de la Seda, 33",40.36612215,-3.76158263,7,16
230,5c040e75e4514f1e73788686d628c86b,415 - Diamante - Delmira Agustini,40.3532609,-3.6877534,8,13
231,5d13faa889e083e1988970e32d3b3719,466 - Villablanca - Vereda del Pinar,40.40894698,-3.6078326500000006,10,13
232,5d23f4979e694a1fbf57d71fce30cca5,"275 - Juan Antonio Vallejo-Nájera Botas, 25",40.4020545,-3.7082123,12,8
233,5dfb0a2f895f14f88d635af09f56f21c,39 - Plaza de la Cebada,40.4112744,-3.7088337,10,20
234,5e02adc0e1a135401a5562184526d10a,423 - Estación de tren Asamblea de Madrid,40.38138801,-3.6685501300000003,9,13
235,5e421861c42ef60bc76cef29b084b5cd,"538 - Haendel, 8",40.46275082,-3.6253213100000004,9,17
236,5e4954c7a4bea35560777111551511c0,404 - Junta Municipal Distrito de Villaverde,40.349111,-3.7109850000000004,16,11
237,5e7fea4ac17f145fa9614f803d3f7e83,73 - Plaza de los Astros,40.4115,-3.6687,8,14
238,5ebf3a67e952520674333550169311d9,440 - Metro Villa de Vallecas,40.3795035,-3.62144691,2,15
239,5f2cf363dddfc990aebc28766cf9b8c1,"403 - Auñón, 16",40.3504944,-3.6775241999999997,16,7
240,5f4c437885205a3db850894b9b7f5dd7,80A - Estación de Atocha A,40.407573,-3.690538,9,13
241,5fbcfadf4d7d5f69329c1aab19225e5a,489 - Serrano Galvache - Yerma,40.47675257,-3.67144504,3,21
242,5ff854ab96bd68ae3c28be05a0dab949,9 - Plaza de San Miguel,40.4156057,-3.7095084,12,13
243,612e6ff29d428cb10a7701b6d88870c0,352 - Algorta  - General Ricardos,40.39162261454714,-3.72745169,20,3
244,61867bc6a9285da3bd654b5f07dd42aa,493 - Arturo Soria - San Luis,40.47636724,-3.6684167,11,12
245,621a79db37ee29074443cfeafbdf98e1,508 - Metro Canillejas,40.449095,-3.609553,10,14
246,62bc09b29b14a85b8fc2cb84d35c3820,343 - Metro Aviación Española,40.38358975,-3.7833930099999997,0,22
247,6378339fbccf5f4338cdbfef0085fdc8,"396 - Gran Avenida, 27",40.36997711,-3.70760649,12,12
248,63fbab70408cb135d89c4cba3baf6c4e,414 - Metro Villaverde Bajo-Cruce,40.350985,-3.692163,12,10
249,64153768b83cd962f04f51419feeae42,187 - Alejandro González - Alcalá,40.4301326,-3.6638249,12,10
250,643c2d0dfbe8ebcb1e92aa279167a9ce,"488 - Ricardo Ortiz, 33",40.42657032,-3.6579643900000005,11,13
251,652deb1c4eea8f476453783b7a373b1d,421 - Arroyo del Olivar - Buenos Aires,40.388435,-3.653269,5,19
252,65306141a778947cb4e0d133c38302bf,324 - Metro Lucero,40.40457132475174,-3.7450961521148636,0,0
253,6573414ef587468f40697092c77d905e,67 - CaixaForum Madrid,40.4108472,-3.693225,4,19
254,65df8cb91e49337e78323079c5f321c9,532 - Metro San Lorenzo,40.47490194,-3.6395164,9,15
255,660d59c75189fef0cf6f399a0d6ba2a9,608 - Estella - Camino de Santiago,40.4968198,-3.6743568,12,10
256,662b4262118343da24cf222f4b52b076,"386 - Avenida de los Poblados, 130",40.37347443,-3.7133152099999998,10,13
257,665a47addaf4d8cf7e3f140a3615fa0a,"146 - María Francisca, 3",40.4442541,-3.6788499,3,16
258,667e917e67766266623c0f191c271e7a,"409 - Eduardo Barreiros, 114",40.3553495,-3.7046436000000003,17,6
259,674cb01e20aec254c075a833f649698d,84 - Biblioteca Pública Elena Fortún,40.40357156992851,-3.672481575393678,15,8
260,6762e453392d1a213f7e44c29accc934,547 - Rafaela Aparicio - Maruja Mallo,40.4792396,-3.6312178999999998,14,13
261,67a80347be64570ff3ce87f7eee206a1,18 - Plaza de Pedro Zerolo,40.4209251,-3.6996776,9,14
262,67dc79c576cf2f95fe2653acd0c99e66,"550 - Príncipe Carlos, 54",40.4941108,-3.6566739999999998,22,1
263,68005e4a6d8386f4b0cac077d4c8cd67,502 - Puertollano - Veinticinco de Septiembre,40.4425157,-3.6237372,13,10
264,684a0233da7291f8e0d4bcc5eba62feb,614 - Biblioteca central de la UNED,40.4356759,-3.7344822999999994,18,5
265,68581a6a27fa439a067a65971776b961,581 - Metro Peñagrande,40.4764797,-3.7163093000000003,14,10
266,686aab5f99fd69861bdff81e0476a5e5,42 - Santa Isabel,40.4108488,-3.6982922,10,16
267,6901976d83b1e73111317b2f38c7e5f6,626 - Avenida Victoria Kent 9,40.401326,-3.564012,11,12
268,69a8ee91116670ef6755c1daa8d27b65,609 - Metro Ronda de la Comunicación,40.5157202,-3.6626887,13,10
269,69f1c6079b8dc79080aac5cb506d2046,"184 - Marqués de Zafra, 24",40.426,-3.6653055,9,15
270,6abe963260e0a6c1924a3f7b58e0cbfc,"317 - Antonio Machado, 30",40.46826955,-3.7192171199999997,15,12
271,6af43be07d2c01ffe392f401c02e2903,401 - Estación de tren de Villaverde Bajo,40.353285,-3.6831269999999994,17,9
272,6b924f8f8eb0d426862c2d50dddad171,"452 - Las Suertes, 15",40.3713613,-3.6078539000000003,4,17
273,6b993e53dea2e6e4a5b3ea9761383d53,"597 - Foresta, 8",40.49853277,-3.66777681,6,16
274,6be758fa20ae819aca6ebe2ac994a322,126 - General Álvarez de Castro,40.4345976,-3.7018044,9,18
275,6c806cb6f9fe0a6c6aa896cf50022a61,"431 - Puerto Canfranc, 18",40.3969,-3.6634,11,12
276,6cccdc4223dd3da22fcc552c73b7ff46,"433 - Villalobos, 28",40.38161669,-3.6507603700000004,11,13
277,6d31d84ccd552fa89307ecedc1a4a882,555 - Parque del Capricho,40.45476837,-3.5981217100000005,14,13
278,6ee41b712e67f203ba13f4791138dcb6,"170 - Paseo de la Esperanza, 21",40.4010554,-3.7043956,10,16
279,6f2606a5e71dde0547e4774255d56ed6,36 - Plaza Ramales,40.4168,-3.7118300000000004,17,7
280,6f5eee32e1850508b20df965ead4a71e,149 - Plaza de Quito,40.4498515,-3.6879303,15,8
281,6f646488c7020bf1ae7fe86fe0635a0d,136 - Metro Nuevos Ministerios,40.4451244,-3.690769,12,11
282,6fd7c768cf4824e15c7a2fe0fc51418a,315 - Caroli,40.45862,-3.784627,3,11
283,7058df411894b94985be5e67852b4e35,299 - Rosario Pino - Joan Maragall,40.46204955,-3.6919324599999994,11,13
284,708d5fd6f23e617d398b004a2966cb71,309 - Ofelia Nieto - Villaamil,40.462051,-3.7087339999999998,13,11
285,70cfd036cc6ab29f50a4a790479bab22,132 - Glorieta de Cuatro Caminos,40.446377501314885,-3.703605250412747,8,19
286,710425001f858fe6811c7e2e8ee52483,561 - Plaza Nuestra Señora de Loreto,40.472048,-3.5857510000000006,5,15
287,71b01834983042fe9cbd2df2cf3e5242,216 - Plaza de Puerta del Ángel,40.4141,-3.72897,19,8
288,723fbfa2648e9e59d4fa184712d7752b,241 - Camilo José Cela,40.4378,-3.6677899999999997,13,10
289,724cbc2093e83a41ec7047d140f2a705,311 - C. Universitaria - F. Geografía e Histo,40.448553,-3.7335740000000004,15,13
290,72d4decbc08118e0db2e087e35e415bb,"456 - Encomienda de Palacios, 8",40.4005,-3.6464000000000003,18,5
291,72e91c8b5a9de2a2e34451149e8741ea,628  - Calle Arcaute 13,40.44358,-3.576652,20,3
292,7309e73d45203a825b82c43d72e8204b,314 - Av. Valladolid - Parque de la Bombilla,40.42966,-3.73068,23,4
293,734e983f5fef5aea2f0a9f93c7a0ac12,454 - Gran Vía del Sureste - Las Suertes,40.3631604,-3.5897045000000003,8,19
294,73689a64aa0bc267741de568e7150531,134 - María de Guzmán - Agustín de Betancourt,40.4441818,-3.6955687,3,19
295,737aac62db277d265b174b286794ecb1,206 - Metro Tetuán,40.4607466894426,-3.698915521426396,14,9
296,73d913619d39e5e3722efa342bb54419,435 - San Claudio,40.38902883,-3.63953994,9,15
297,74ddee3c45fe3a79f1bfc48c152adf97,"313 - Juan XXIII, 24",40.448084,-3.7169358999999997,17,10
298,76868bfdc619d5b40a82014137786dfe,44 - Plaza de Nelson Mandela,40.40979071254635,-3.7038640533106597,1,18
299,778f13e7dda3169186eeae32dafe6f10,139 - José Gutiérrez Abascal - Castellana,40.43939562033124,-3.690419307270818,17,8
300,77eb3a212714607ba3a87d9d5dc77566,"402 - Berrocal, 9",40.344115,-3.67615,25,2
301,7833b76095b79f98a956c670b3db6409,190 - Velázquez - Diego de León,40.4343053,-3.6833753,9,16
302,78968c75ab7ab9af7b968cb882cc3609,497 - Metro Suances,40.4407,-3.6274,8,15
303,78cd163f0c47dd075e0f22cd961fc223,"576 - El Ferrol, 18",40.47431313,-3.70510525,11,13
304,78e348ad98413d1b35e42822956a2a4c,52 - Plaza de Santa Ana,40.4144689,-3.7008558000000003,5,9
305,7955560a4516bbcb5c0f0de1d0537e95,349 - Huerta de Castañeda 26,40.40622095698234,-3.74201882097404,19,5
306,79674b879b26fcf965240feea9870a3a,494 - Metro Pinar de Chamartín,40.480694,-3.666529,1,22
307,79f9c23362b9dd3eaf89ee78a4a519e1,186 - General Pardiñas - Don Ramón de la Cruz,40.4289804,-3.6783015999999997,4,19
308,7b1d1679aa52ec836f5d709292a8d177,528 - Albelda - Torrelaguna,40.4494225,-3.6573666,13,12
309,7b8d4d96ca41a6c999828faab52b91b6,410 - Est. de tren de S. Cristóbal Industrial,40.3325463,-3.6992665,19,0
310,7befde034c5b9ba87b3124a726b5a5e0,14 - Ventura Rodríguez,40.4260425,-3.7133069,3,24
311,7c05e4c2e17696c870ef55ef07de3057,79 - Metro Menéndez Pelayo,40.405110193977585,-3.680439824323069,9,18
312,7d38eda46970d820006767b144a8fc17,165 - Entrada Matadero - Paseo de la Chopera,40.392888,-3.697596,18,25
313,7eb48bcdd7de753b8626a9957b0992e3,596 - Metro Lacoma,40.4854829,-3.7230042999999995,4,20
314,7ee825310bc474281277dcb7d4e2cab8,218 - Camino de los Vinateros A,40.4105478,-3.6572967,7,16
315,7fa34654ac9ed0cc48a646505b9d374e,20A - 20 - Banco de España,40.4188076,-3.6952465,18,11
316,7fce8791b34a86fc3dc049c07eecf493,175 - Jaime el Conquistador - Divino Vallés,40.3962264,-3.6983445200000005,14,5
317,7fd1c0cbc22b838061b7b8684efb74ba,553 - María Portugal - Niceto Alcalá Zamora,40.499909,-3.658921,9,14
318,804d784c77c3c5055f1bd2f11483b0c0,130 - Metro Ríos Rosas,40.44156,-3.7016399999999994,1,21
319,809a3df92d05ea6578f93e5ab879b6d7,240 - Brasilia - Parque Breogán,40.43666,-3.66096,13,11
320,80d8f0d5b702d7f0584cea2026548e37,77 - Plaza del Conde de Casal,40.4064784,-3.6707132,12,6
321,80e8e13d81608ff3e770fb9442cd1023,363 - Metro Oporto,40.38745087,-3.72987333,9,13
322,811a0ca91b75d4b82b6c169aeb606087,202 - Parque de Santander,40.4413,-3.7083,1,26
323,8164a71f61a79c4a1ddaff64e5a1f615,129 - Metro Alonso Cano,40.4383865,-3.6982353,18,9
324,832a873163215cd64d519ab81f1a42aa,223 - Ermita del Santo,40.406448,-3.724576,16,10
325,84263ef399b4df3d3284873d810d66a9,616 - Alcalde Martín de Alzaga,40.462899,-3.7171950000000002,13,10
326,847ffaff9886ccc77cc5b79aa6d5271d,180 - Estación Sur Méndez Álvaro B,40.3940423,-3.67589,11,12
327,8497230f1bea7562e3f902b5ae551164,510 - Metro Avenida de Guadalajara,40.42218968,-3.6134619899999993,6,17
328,85620fdfea87f62c87bac2c1324375cd,483 - Marcelino Álvarez - Daroca,40.4297428,-3.6534324,13,9
329,85643ac810a8ce5886bbb6eaa13d6f30,23 - Santo Domingo,40.4202595,-3.708249,5,17
330,86006b95cc7825fbd7c9170d9253364c,10 - Marqués de la Ensenada,40.425403,-3.6921040000000005,2,21
331,863e59cd50e00bbf682ea34a08f6b256,48 - Casa de Baños Embajadores,40.4054815,-3.7020565999999997,9,14
332,86727b9d25b5687adf047e0195f778fe,97 - Metro Príncipe de Vergara,40.4225364,-3.6802556,15,12
333,869e79630994cf74441c955028d25a4f,301 - Muller - Capitan Blanco Argibay,40.46518187,-3.69837565,12,12
334,86dfe781830e11d5827ab2b4f5eb3c28,501 - Metro Alsacia,40.4191,-3.6241999999999996,13,10
335,8719cd85094a52c8fb471e3fbf81daa0,337 - Metro Aluche,40.38614104,-3.7604892299999997,1,16
336,8727759e9b7299aef0bd2ad92e5702f6,131 - Plaza de Juan Zorrilla,40.4417884,-3.7040312299999996,16,7
337,879370f7ffd5a000a39bf7be6f8e75c0,113 - Teleférico Madrid - Estación Rosales,40.427538,-3.7207263,14,10
338,87efc505d1d1f3888ff56ddfb370edbc,517 - San Mariano - Circe,40.44175279,-3.61190481,7,20
339,883220b383683b03949e63f6bcd70926,112 - Paseo de Moret - Parque del Oeste,40.4326901,-3.7247360000000005,2,20
340,8839975d077cd9da7f67bc7b0e263c7f,225 - Sierra Toledana - Doctor Lozano,40.402506,-3.660345,24,1
341,88afa5a6a99fcc7bf378fea904091512,228 - San Delfín - Antonio López,40.39440607959559,-3.7080429728445568,19,0
342,89ae6eec16d02a239e41aff7816b83d1,392 - Metro Almendrales,40.38268,-3.697856,18,4
343,89dede092955ecb4152580afea169a24,492 - Metro La Almudena,40.42466356,-3.6394989099999995,11,13
344,8a08dbc78cde31230fe7271177e2adca,"118 - OFICINA DEL SER, APR Y BICIREGISTRO",40.400781,-3.6882407,7,16
345,8a4fdeaea5f177925bdfa211902b3fc3,181 - Ibiza - Narváez,40.41816932665331,-3.6764435404754696,14,13
346,8acbf9f5a91d5a5c030b0a35401e2a61,287 - Metro Bambú,40.4765,-3.6762,11,12
347,8b1dd4a8f6d13e89c707c2c362f2a92e,235 - Sodio - Embajadores,40.389041,-3.691076,6,18
348,8b52717d46761e99057bead718aa256e,412 - Estación de tren de Puente de Alcocer,40.3500291,-3.7043083000000006,23,2
349,8b54cf629b90785d178be10ec1317016,168 - Santa María Cabeza - Batalla del Salado,40.4046,-3.6959,10,13
350,8bc8d4399edf0ece932df426067aa442,"238 - San Germán, 5",40.4561825,-3.6932611,11,13
351,8bdd7ba510ce3aaa0088e000c3c43136,498 - Metro Torre Arias,40.44313349999999,-3.6178316999999995,8,19
352,8d7d1139a2fd6da9e2bc9b45cd4f38fd,312 - Metro Batán,40.4077495,-3.7528559,17,10
353,8d8805e355163f76aace1126da835783,491 - Esteban Collantes - José Arcones Gil,40.432883,-3.6376629999999994,7,17
354,8e843c2d132487922b70bd20a6861a9c,119 - Méndez Álvaro,40.4012905,-3.6862652999999996,11,12
355,90880571072abb82798810542c034abd,255 - General López Pozas - Apolonio Morales,40.46361,-3.685292,11,12
356,90e9a86ad9efa88fb7bcd8464b8e799b,"76 - Avenida del Mediterráneo, 19",40.407271,-3.6751020000000003,13,11
357,914a184c6817b5a98509f023e1d852c0,458 - Metro Vinateros,40.40991083,-3.6525660400000004,22,2
358,928cae8a7f2d1c95ba73eac719817e5d,484 - Metro García Noblejas,40.42893071,-3.6323890000000003,18,4
359,935f256383ee53d08b17d07641b09d8a,167 - Segovia 45,40.41374770742206,-3.7174891703237303,16,11
360,9382f97a1451114c2f0a05f3ecf3d176,173 - Paseo Esperanza - Santa María Cabeza,40.3983467,-3.7024839,12,13
361,938d34a01ec8ec39d010399ba43d77ca,577 - Monforte de Lemos - Plaza de Mondariz,40.47899993,-3.70566914,10,14
362,9398d15fdbe5a4048f18609692625b1e,17 - Plaza de Carlos Cambronero,40.423126,-3.7041659999999994,9,14
363,9405cc4a65b2f0502780b36df8f844f8,"344 - Ocaña, 103",40.38586273,-3.75292035,9,14
364,94a3bd8a6209700203878025ba002e11,471 - Molino Viejo - Minerva,40.396301,-3.60666,6,12
365,94b84e2e1eed0b45af01085e1e03b3a0,"371 - Joaquin Turina, 49",40.372458,-3.7618199999999997,7,20
366,95a65a1d57969bc81fd39075d3ac1c6c,470 - Avenida Real - Galeote,40.4021519,-3.6063672000000007,6,12
367,95cf5c1f193e3e68c1ad60354b85798e,63 - Hospital Gral. Uni. Gregorio Marañón,40.4179237,-3.6708958999999997,12,11
368,96071b53af1bd0ee7fc09742d3b092cc,208 - Intercambiador de Plaza de Castilla,40.4662811,-3.6890611,4,13
369,9698c20a78947517edb32609c1cf46e1,570 - Uni. Autónoma Madrid - Facul. Medicina,40.4815,-3.6938,14,13
370,9708d65f94c5a781c2b3b40b69285d62,253 - Doctor Fleming - Estadio S. Bernabéu,40.45546,-3.6884400000000004,5,15
371,973171504e31d44144c14c907b7beb34,541 - Metro Pinar del Rey,40.4682706,-3.6468591,8,15
372,99888892c3a40692b259c9e3ac875c2c,222 - Eugenio Caxes - Antonio López,40.3917871,-3.7026789,12,11
373,99e3e2191d18d17eb042d1168dd5fb80,256 - Reina Victoria - Beatriz de Bobadilla,40.44635,-3.7138299999999997,4,19
374,9a0952cf52fda29063568aeeb8f93331,573 - Melchor Fernández Almagro - Villa Marín,40.47772776,-3.69962571,12,11
375,9a16c026663eb228df9279725e7542a4,110 - Intercambiador de Moncloa,40.434745,-3.7201021,5,17
376,9a245a703adadd54b96242b817d7d8c5,115 - Ferraz - Templo de Debod,40.42531476841791,-3.7170515055225373,18,5
377,9a29dceaba62cf629923810203e78c4a,217 - Hospital Universitario La Paz,40.480884,-3.6890757999999995,8,15
378,9a60f11557ee2512b75faffd04d34e55,357 - Sorbe - Baleares,40.3898701,-3.7132091699999994,16,8
379,9a7c8386e03cddfd8b218359c2311966,367 - Metro San Francisco,40.373972,-3.7398400000000005,15,8
380,9a99c417f0cb664dede4b35b3d3d6020,495 - Caleruega,40.478611,-3.6704759999999994,6,18
381,9ac8703e2ad08074dcbce80fa2c0686c,230 - Carlota O´Neill - Agastia,40.4436792,-3.6488254,16,8
382,9ae4bbb0391d14dbb66f12040b511fef,389 - Julio Merino - Pilarica,40.3831,-3.7032,17,4
383,9b3f729297b55e5cc2e5240eb2bc9e72,261 - Ciudad Universitaria - Facultad Derecho,40.4505516,-3.7296756,4,19
384,9bd5a7dd8add5079ff0eab84f0897f03,506 - Albarracín - Julián Camarillo,40.43397327,-3.6325164100000005,10,14
385,9be6a3e38f3d841dbdf7f97524ce5bc7,70 - Hospital Uni. Infantil Niño Jesús,40.415382385574716,-3.677872542327878,11,15
386,9c3490bbd9ff14f90113ec6d8d7e7472,531 - Metro Parque de Santa María,40.4768782,-3.6450740999999995,8,14
387,9c42e5b537eeca5c9bd613b2beaffe01,155 - San Germán 57,40.4573342300643,-3.700930190178302,9,14
388,9c9b810b4d72a03980a3dd66a55a4a0e,476 - Metro Avenida de la Paz,40.453493,-3.662016,15,8
389,9caaba9ade983daa99df4c50bee6df4c,305 - Intercambiador de Príncipe Pío B,40.42276114,-3.72317757,11,11
390,9cba27a5b9203b69de01e062e20ada68,548 - Eduardo Mazón - Guadalajara,40.4521484,-3.6154156999999993,10,13
391,9d51fcbdb1b6d8eb36d998f7c42228cb,390 - Avena - Mijo,40.3773,-3.7159000000000004,15,8
392,9db9432cd4629b22913984698d03c1d4,459 - Moratalaz,40.40750626,-3.66000272,21,3
393,9e31e458e9cc32352ce1d11ef97e418a,280 - Ps de los Melancólicos - San Epifanio,40.401782,-3.7185689999999996,10,13
394,9fdb490223fabfdf12da53f0d2ba7248,233 - El dragón de La Elipa,40.4229522,-3.6555789000000005,16,8
395,9fedeb5a158c96b3857e9f019688f806,295 - Hernani - Edgar Neville,40.4481,-3.6972000000000005,11,12
396,a039b475bcd33432b15a5b1bd35c2c41,354 - Jacinto Verdaguer - Lola de Membrives,40.39593854704345,-3.7160526116262793,18,6
397,a27a21ac104ed426b099139b98eb3a6f,117 - Altamirano  - Martín de los Heros,40.4309797,-3.7188898000000004,16,6
398,a301d9269a7c349d1de64a87be3a49d9,292 - Centro Deportivo Municipal Pradillo,40.44904126,-3.6717937,18,5
399,a316ca2aa6d3863e14fac2e603cd45d2,568 - IFEMA A,40.4632802,-3.6178336,5,21
400,a3fd5f9d95358c0ca124b4bf316d4fa4,212 - Metro Marqués de Vadillo,40.398247,-3.7165910000000006,15,12
401,a46baf09e4b14d0d87c80046e8697202,68 - Espalter - Ruiz de Alarcón,40.4127692,-3.6913231999999994,2,17
402,a6d462c0cd72a57be3d7f7d32842953f,530 - Metro Mar de Cristal,40.4685745,-3.6378834900000006,4,23
403,a6fda01c8ac13db9fb21c5dc80a89f39,159 - Paseo de la Habana 63,40.4543852,-3.6835925999999994,13,10
404,a74558865fa1c5a7dfcf88e57ac4607b,41 - Metro Antón Martín,40.4122047,-3.6991147000000004,12,7
405,a777cfaea9d8ac341dbabf501332d999,"105 - Serrano, 46",40.4270832,-3.6875418000000004,3,20
406,a889744f1d4fa07225043d8dcddc9908,618 - Calle Paterna 55,40.340613,-3.68482,10,9
407,a8c0f16248e7b59d3f45ba1f9941bb4d,"395 - Guetaria, 84B",40.36916772,-3.71569102,19,7
408,a8e8b8cc32c73853075df5394cc8e55f,"603 - Castiello de Jaca, 14",40.5091982,-3.6782027,8,15
409,a93d4a21bb2597fd27f1de5730064e55,29 - Marqués de Cubas,40.4163838,-3.6957434000000005,21,2
410,a95f5e468278802e584cc44df841bd19,55 - Plaza de San Ildefonso,40.4239757,-3.7020842,2,21
411,a9da83686dc44345547e7376bd40e55a,549 - Francisco Pi y Maragall,40.4866354,-3.6503543999999994,10,9
412,aac9603589b014a8abe82d3c2642c07d,57 - Santa Cruz de Marcenado,40.4295658,-3.7126299,8,14
413,aafae119e80df0c6783a119109e0b709,89 - Ayala - Conde de Peñalver,40.4272582,-3.6752024,14,10
414,ab10ec833ba298bcf5aa853a3110ba6d,47 - Renfe/Cercanías Embajadores,40.4045772,-3.7027998,17,7
415,abc5d3254207794618ac2dd4e43d72f5,535 - Metro Canillas,40.463575,-3.634999,23,3
416,abc61c10b29044f4cd40b072c72895a2,486 - Serrano Galvache - Arturo Soria,40.471382,-3.6679379,13,10
417,abcedee04fbf97b8c8b93f8ddee9ebed,385 - Estación de tren Orcasitas,40.36721104,-3.7038867099999995,18,6
418,abeb5cc79d757750fad030f5907fd456,179 - Metro Puente de Vallecas,40.3979273,-3.6692724000000005,9,15
419,abf51caed0af3e54d2dd4ade5dd9c22d,122 - Santa Engracia - Zurbarán,40.4295362,-3.6963659,19,4
420,ac1298c00ab6e810640368ca6c3fefba,81 - Cuesta de Moyano,40.40934261188139,-3.691833220071059,21,3
421,ac68f7aeea93cb0437a5d2b2aaaee51c,446 - C. Deportivo Mpal. Miguel Guillén Prim,40.373826,-3.6236297000000004,16,7
422,acb1ce1b260c6746c786919544691a96,306 - Centro Deportivo Mpal Fernando Martín,40.4617959,-3.7121965,13,10
423,ad3eb81aca0df6c41bda89a935bfc026,477 - Metro Ciudad Lineal,40.438278,-3.6389040000000006,13,11
424,adb06d4904558d27c3381f7fb0b4baa1,537 - Plaza López de la Plata,40.45841466,-3.6257943900000003,11,15
425,adc7cc58cbb0d11588d63bf30f76f6d2,293 - Santa Rita - Clara del Rey,40.4457928,-3.6682881999999997,15,8
426,ade77b0426c6e2e9a5c9f214e69fee28,428 - Estadio de Vallecas,40.3919,-3.6570999999999994,7,16
427,adf790c7a5c4e29b980a7054f8f1a99c,229 - Centro Deportivo Municipal Concepción,40.4369378,-3.6486508,11,10
428,ae1a71abc880b539677036043cf929b2,"335 - Cardaño, 10",40.39659757,-3.7705754100000006,12,11
429,ae274e3209e03f70477c819ff7545c72,82 - Doctor Esquerdo - Metro Conde de Casal,40.4084556,-3.6697526,18,5
430,ae77896040bf5224703a8c5301e26d6c,629 - Avda de Fermina Sevillano 23,40.44477,-3.568829,5,17
431,aeb8954ed08e65712d80d01e98495c30,504 - Biblioteca Pública Municipal San Blas,40.42309928573645,-3.623466935545257,9,15
432,aebf9273155cc101152d292530813948,578 - Sierra de Atapuerca - Viloria de Rioja,40.50292982,-3.6704248799999997,16,7
433,aee3c2c3643c10ca72728209300b9232,587 - Metro Paco de Lucía,40.49892399,-3.7086574400000005,9,18
434,aeebc0c288d78b41a83efb56f600f7d5,369 - Junta Municipal Distrito de Carabanchel,40.3802446,-3.7415832000000004,11,12
435,afb6d848684c44f65a5ecf63abc8e5ea,350 - Ervigio - Amalarico,40.3947,-3.7315,9,14
436,b00e0f2f66e64f2256ab50729b0b13a8,121 - Glorieta de Santa María de la Cabeza,40.4017487,-3.6986027000000004,24,3
437,b0291971d628247098f94cb80d1c88c2,331 - Valmojado,40.39649629,-3.75757186,9,14
438,b0c858000e4cb3de7d8db039aefa684c,542 - Intercambiador de Valdebebas,40.483962,-3.6157089999999994,4,18
439,b17ddf5620fe3c75bb0accb9cd8ffdea,524 - Glorieta Luis Rosales,40.4673,-3.6542999999999997,11,12
440,b1b27d38f469d4b86a6414c7ecf79dc3,346 - Metro Empalme,40.3907438,-3.7664844,7,17
441,b1d19a4309de8a985fa1e4e80feb2fdb,569 - C. Deportivo Mpal. Vicente del Bosque,40.4795,-3.6964999999999995,10,13
442,b259c4eb75c929505a88fd071282af0d,462 - Gallegos - Lavadero Viejo,40.40240379,-3.6102747000000006,12,15
443,b27802df83d51e8c7282e7a81df569ff,325 - Ps. Jesuitas - Pza. Cerro Bermejo,40.4106918,-3.7305543000000005,9,13
444,b3126557417620ddb2a5980437a37777,303 - Ps. Dirección A - Pque A. Rguez Sahagún,40.46778929738312,-3.7080850848120277,11,13
445,b3a0f09db2d9be0a3ad9b467eed5324c,19 - Prim,40.4218616,-3.6954982999999997,19,9
446,b40afdba23e2a8e646384d7d9539d8ef,330 - Duquesa de Parcent - Marcelino Castillo,40.39500224,-3.7447281,17,7
447,b4f885d8c0caf55b8fef01f2ffc1c124,469 - C. Deportivo Mpal Faustina Valladolid,40.40343,-3.6229899999999997,10,14
448,b52424e1be4e80390fd0c4f00c5a47c2,"422 - Travesia de Palomeras, 7",40.39017003,-3.6705179,11,12
449,b5be751789e2aa489c0e70a7c10b062c,163 - Metro Acacias,40.4037586,-3.7064450000000004,17,5
450,b5f4c85fdd03be44a4774c8852f99f08,125 - Fdez. de la Hoz - Gral. Martínez Campos,40.4353,-3.6948,15,12
451,b635a25884e2b8c57ff8b714b9aec97f,523 - Carretera de Canillas,40.4628701,-3.65089253,14,9
452,b685cff7f3495c8aa4a3acda59106960,38 - Plaza de los Carros,40.4113586,-3.7115898000000005,14,13
453,b695cd30912b48993dc76716e622ca1f,359 - El Toboso - Zaida,40.3929901,-3.7363397,2,20
454,b6ed3331105350807bb2fff8c9d0e694,557 - Metro Alameda de Osuna,40.45746674,-3.5881514300000004,19,5
455,b712ea8a7c92d5624519e1e2a3a0e2f4,176 - Plaza de la Beata María Ana de Jesús,40.3941856,-3.6939412,15,7
456,b763e52d2dfe1917bc98b4b5fdea80ef,114 - Quintana - Juan Álvarez de Mendizábal,40.4278379,-3.7174631000000002,16,7
457,b7a449d7fb72012ab4ac9c6c7c8af8a1,83 - Pío Baroja,40.4132995,-3.6744795,15,7
458,b8af9a411a2e9e6a2c9891a96f244d56,509 - Amposta - Arcos de Jalón,40.42218951,-3.61865045,9,14
459,b9104c2f841e063521f6da07146ab212,288 - Caídos de la División Azul,40.4664,-3.6723,14,9
460,b92dd992352fe518740087d005cea64f,487 - Manuel Uribe - Arturo Soria,40.46434131,-3.66503419,2,21
461,bb0cbbe268267ce21d3b5667bc24c132,593 - Metro Avenida de la Ilustración,40.48027409,-3.7186906700000004,9,15
462,bb1db7fc407084a75b7a6766c77967d7,619 - Cooperativa Electrica 13,40.374387,-3.6596330000000004,9,14
463,bb4f483052dcba5367fb5127a0d6b0ed,116B - Metro Plaza de España,40.423684,-3.71046,14,4
464,bbc32f82b8fc2f42868a2f588cc1f481,366 - Metro Carabanchel,40.387737,-3.7445210000000007,8,15
465,bd0af4033b0d19e6c75d35de3b9c3517,388 - Estación tren - Hospital 12 de Octubre,40.37837955,-3.7004147799999996,12,11
466,bd38644562c701c0220349acf7c21f03,281 - Reina Cristina - Julián Gayarre,40.4067247,-3.6831862,14,9
467,be5ef5619ce460f345c3fa2ad1b107bd,143 - Diego de León - General Pardiñas,40.434676,-3.6780802000000006,10,13
468,bf1665b9cdab08f9b13585ae6c036ee9,245 - Galileo - Donoso Cortés,40.4363637,-3.7101381,14,10
469,bf2fc3f87d9aac0b6ec750e1ddaa6f32,108 - Mártires Concepcionistas - Alcalá,40.427402,-3.6706519999999996,12,15
470,bf9745591c83efdcb793337868505e84,"556 - Cantabria, 6",40.45462514,-3.5877220100000002,13,11
471,c0ed5f8ba42afd84ad03d1d189914f13,447 - Adolfo Bioy Casares - Las Suertes,40.3668504,-3.5981935,13,13
472,c18c1bf9d3715b3578c66a86de1e66dd,161 - Intercambiador de Príncipe Pío A,40.422192474165534,-3.7220993214090403,5,22
473,c1ef38a4456a804ff171bab6baf71503,"375 - Calderilla, 4",40.3651497,-3.7386602999999994,11,16
474,c27c27169e19cdeaa8977d50c9b1d7e6,499 - Biblioteca Pública Municipal Canillejas,40.4466561,-3.6121996,5,17
475,c2bc5ef207424459e17af1f610a12120,169 - Glorieta de Pirámides,40.401589,-3.713823,11,12
476,c4706909110b5b35c503e32a7c23f9ae,521 - Metro Las Rosas,40.423893,-3.6048180999999997,5,19
477,c5501febc368823b4ce99df6d9ccb754,"279 - Paseo de los Melancólicos, 1",40.4104448,-3.7184815999999996,5,18
478,c57f18443e065c75434ac58e4e022f9b,193 - Plaza de las Ventas,40.4324722,-3.6655555,2,25
479,c7ee04b9af5461f44e37179641f8216e,384 - Metro Usera,40.38707469,-3.7061449,0,0
480,c80775053dbac3f65624b24e23047fcd,438 - Biblioteca Pública Luis Martín Santos,40.3804482,-3.6140607000000005,17,10
481,c846eee7053a32692fd03494160c39df,586 - Caldas Estrach - San Cugat del Vallés,40.4963916,-3.6974724999999995,7,16
482,c84faa338b04930c57fb51d15dc8c1ed,145 - Ortega y Gasset 87,40.429887,-3.6712823,15,7
483,c86ed845e9dbafe8f93a17a5245c4084,551 - Oña,40.4891872,-3.6658565,11,12
484,c87a73fcd28edc9aa34dad0835a43ba5,512 - Semilla - Aparejadores,40.42667885,-3.61537023,10,14
485,c9303d48efed01d54bb8e94fb795cbc8,177 - Metro Legazpi,40.391447085678806,-3.6941876374343896,17,6
486,c9ba4348dccd085f5e976382478dd4f9,302 - Ps. Dirección B - Pque A. Rguez Sahagún,40.4702445774,-3.703955,8,16
487,c9cfee3ad3cb399cff4eda5b9bac99fe,74 - Parque Retiro - Jardines Cecilio Rguez,40.41206290978386,-3.6765887637889834,17,9
488,c9d553f3fb07c6d8c11cd33fc3145f36,516 - Juan Ignacio Luca Tena - Quinta Molinos,40.44796778,-3.6311025499999996,15,12
489,ca93eaebd05840d46a1bfd32587f613f,51 - Ronda de Atocha,40.40775564657782,-3.6934856312828,11,16
490,caca1e9687038e93168c695afbdaae6e,43 - Jesús y María,40.4100387,-3.7024709999999996,13,5
491,cb3a9ed39fad30478f2953dbd5bc08df,511 - Aquitania 31,40.41912347,-3.61726728,12,15
492,cbb645e440b95aa47bc7e244cfe76af7,584 - Metro Montecarmelo,40.50501029,-3.6960334500000003,15,8
493,cc6d69346bee172ec05db3c963961d5c,474 - Estación de tren de Vicálvaro,40.402255,-3.596875,2,25
494,ccd2950dd7c6e0e12faa0f5cdb0bddda,106A - Plaza de Colón A,40.424924,-3.687807,8,11
495,cd84f79f8778438035fd45f0d8d970fc,133 - Raimundo Fdez. Villaverde - Dulcinea,40.447125,-3.7001669,2,22
496,cd9f1e0f1bd7519e1a5eb1ec2ec50fa7,297 - Simancas - Pinos Alta,40.4655,-3.6951129800000007,4,19
497,cf33e20fd76636f7376206b1d7eebc9a,98 - Plaza de Felipe II,40.4241325,-3.6757676,14,14
498,d05fa7014bca8dc159fc84010683571c,"427 - Andaluces, 2",40.3914244,-3.64148304,13,10
499,d073f6208f55a5cbf29dbab6125c0768,54 - Metro Tribunal,40.426599101766264,-3.700392997553259,22,0
500,d0e0e622e97ce95507ae007eae3908b2,96 - Alcalá - Castelló,40.42201515498424,-3.682204798770403,17,9
501,d116ca02f717e4f707d3f149fd617a59,205 - Metro Estrecho,40.4535,-3.7032776999999997,15,8
502,d16b301f12bb587b0c9df238d6337ca7,171 - Embajadores-Cáceres,40.3997013,-3.6984023000000006,15,12
503,d1ad7ec2faaffc8b6fa1d192839353a6,144 - Metro Diego de León,40.4324081,-3.675556,15,11
504,d235f0553a87e577871b8466ec955a0b,"332 - Los Yébenes, 159",40.39302789,-3.75181704,17,6
505,d2602501a8b2b08c5d62e36bd994b936,322 - Ps. Jesuitas - Mercado Alto Extremadura,40.408,-3.7350999999999996,11,16
506,d2bcdb35083229c120646a048f87c291,251 - Santa Hortensia - Corazón de María,40.44421,-3.66683,16,7
507,d30baf23466553a05309ee352c9576de,481 - Diego Ayllón - Arturo Soria,40.45117857,-3.6521906299999998,15,8
508,d30e9073a29fd57a6e4845f195cf7cbe,"443 - Fuentespina, 33",40.37941487,-3.6072475500000003,18,7
509,d31946c889d8bff74561957775831cba,580 - Metro Herrera Oria,40.48337,-3.7069039999999998,9,14
510,d4252e4c022f5ce3711d4db123e0df57,478 - José del Hierro - Misterios,40.44152084,-3.6410572000000005,7,16
511,d4dcbdb912742773078feffb9574e214,236 - Paseo Imperial,40.4075794,-3.7170785,6,20
512,d53838439aa6fc4eaffb8d443ca54c43,"393 - Manuel Noya , 29",40.3853787,-3.7117979,1,23
513,d583307fe0f9b3287c785889831ded96,209 - Plaza de Castilla - Fundación Canal,40.4657,-3.6887000000000003,18,5
514,d647731aae57853c2a30a6b63de8eccd,102 - Metro Retiro,40.4211845,-3.6842317,12,10
515,d660a2b3effa78bad1c3782004757859,"394 - Periana, 24",40.36672327,-3.6876580500000005,14,10
516,d674b7e68bc1804500cc787b8f27aeb2,232 - José María de Pereda - Alcalá,40.4327663,-3.6486169000000004,16,12
517,d6bb631f6a870054ae80754d09e96bfd,90 - Metro Velázquez,40.4251493,-3.6838415999999996,6,18
518,d7911371821c30ad1dd97a044de064c6,"362 - Hilario Herranz Establos, 36",40.372839,-3.7266379999999995,17,10
519,d7e28e1dcfa7b4501110082ed93d6331,35 - Plaza del Cordón,40.4141931,-3.7103284999999997,19,5
520,d7e4a673a5b7be7c13420c18b7961ae1,370 - Avefría - Plaza de Tarifa,40.38386939,-3.7308024999999994,15,8
521,d7f8b012a14b8bc60290de5d6cf44edc,"382 -Parque Eugenia de Montijo, 2",40.3783501,-3.7545821999999998,7,17
522,d8980cb93e93ac734b29627d8e6517a9,201 - Metro Canal,40.4386944,-3.7038332999999994,2,20
523,d904e7a2b9770a9c02fab653eba76653,6 - Colegio Arquitectos,40.424148,-3.6984469999999994,5,14
524,d992fb6af7c1e618bd67c43a43a61235,546 - Andorra - Canillas,40.4628976,-3.6467519000000004,8,15
525,dad08f85b8337e68c43996a29d4833fc,329 - Metro Laguna,40.3988162,-3.7444520800000003,0,0
526,dad4f32bfe4f3db3be0d384315ce8637,"505 - Castillo de Uclés, 37",40.4315255,-3.62306578,17,7
527,db7519b667abca4be9ded62227845b64,45 - Metro Puerta de Toledo,40.4068659,-3.7111033999999994,12,6
528,db9912ea74c64291636b69ce2b319f53,599 - Instalación Deportiva La Cabrera,40.47223267,-3.7192044300000004,9,18
529,dbbcefc8d4a9fe7c0f20c148c6addd0f,"457 - Hacienda de Pavones, 148",40.4026,-3.6419,22,0
530,dbecfddc135bab5d3f60973b4a5963c1,527 - Velacho Alto - Trinquete,40.47250314,-3.6592688399999997,11,13
531,dbf055f6649ae1aebb6b777032e6724a,65 - Parque del Retiro - Calle Antonio Maura,40.4167014469994,-3.6894247979427686,21,4
532,dc09cd15183715b63e2ee9eb0e67086b,"500 - Aracne, 17",40.445,-3.5895,9,18
533,dd3576484e20893fedc8195a6b2c359e,244 - Hospital Clínico San Carlos,40.44003,-3.71757,3,20
534,dd77398abb55a5ef9ea229a8578853e6,316 - C. Deportivo Mpal. Ciudad De Los Poetas,40.46439687,-3.71995383,7,11
535,ddda2d4b35722491a523c1fe2c20a726,326 - Metro Alto de Extremadura,40.40937950320982,-3.739615781020349,15,10
536,de456653c316380478c95b4d394c8511,"519 - Troya, 11",40.43699597,-3.61191521,15,9
537,deb776e160af2be8d58479fa0dc7c385,37 - Plaza de San Francisco,40.4108,-3.714113,12,12
538,def133740a643b67991503a8f69925c3,196 - Metro Prosperidad,40.4442237,-3.6752218,6,21
539,df1e26bf15d700a5b337228db7229861,154 - Orense 36,40.4548456,-3.6946218,16,8
540,df2114c7de1b90575e78ace92265825a,334 - Metro Campamento,40.39497294,-3.76815631,10,14
541,dfa486612c87e250f625a48504eafb42,441 - Estación de tren de Santa Eugenia,40.38600753,-3.6094815299999996,16,7
542,e17f31b16b7748d4e441ea0b058a25fb,78 - Metro Pacífico,40.40063747422422,-3.674524060049444,8,19
543,e1b1a833a278fe11f851bfe304955c15,544 - Gregorio Sánchez Herráez 14,40.477248,-3.6365700000000003,8,15
544,e1b1f5e724935445b630fe53e4187c6b,"424 - Camino de Valderribas, 47",40.4002231,-3.663958,16,7
545,e1b6ba1af594bf4234c1791b1b4cb5e6,571 - Melchor Fernández Almagro - Plaza Tuy,40.4756475,-3.710326199999999,20,3
546,e1e51975c825f7333aa50734f78db2f1,621 - Calle Montiel 27,40.381382,-3.672609,10,12
547,e1eeb18635b5b15246e4db0c9b60f1a3,249 - Castellana - Cuatro Torres,40.4795018,-3.6853186000000004,7,17
548,e250d4476ca1ad78b9cea066b2820349,625 - Avenida de Miguel Delibes 49,40.405505,-3.560344,22,2
549,e28ba84dac15fa266304ee1f3f62628b,348 - José de Cadalso - Rafael Finat,40.37959145,-3.7702477799999996,0,0
550,e2e61e45fcc0d27b534a5dc1fc19d10d,525 - Metro Manoteras,40.47675499,-3.6626902900000005,8,16
551,e34819efdefb76484e31bfd3197f73a6,613 - Facultad de informática,40.453109,-3.7348129999999995,8,15
552,e367647c5c815328cc6ff105ab9fba80,289 - Luis de Salazar - Padre Claret,40.4474166,-3.6649258000000002,17,6
553,e369272681c1b4c16159b68e9eea271b,27 - Huertas,40.4133,-3.6957000000000004,3,22
554,e3a4e1dbb3640b703343324592cdba19,224 - Parque de Caramuel,40.409,-3.7287000000000003,17,9
555,e4d8fb1acd7ef560cc928425a5c94146,30 - San Quintín,40.4192095,-3.711504,15,12
556,e5ed1fa74971323a751faa590a81cb1b,620 - Calle Cazorla 79,40.376297,-3.6658859999999995,10,12
557,e6be8e1d5c06b5069c6e6ba81a6d937a,213 - Glorieta de Cádiz,40.3889918,-3.7002247,5,17
558,e71e7d1af639995f34845b2c78e1fc17,361 - Metro Pan Bendito,40.37734672,-3.73266666,19,2
559,e80f5570feeb2a186821509761a78888,341 - Escalona - Seseña,40.39834576,-3.76182259,19,8
560,e83d7dbd8085eec96b959f01398f2a33,408 - Metro San Cristóbal,40.341725,-3.692444,9,14
561,e85a283ff73669039bdbb8dd95a21e63,630 - Calle de Febrero 4,40.446868,-3.573031,4,19
562,e8c64b39e7eec3a0590d68a7fe0ccde6,579 - Maria Tubau - Isabel Colbrand,40.51399230680476,-3.671703587033564,13,10
563,e951a00bdbcd1ca2bc07364f64d0be45,195 - Indalecio Hernández - Mataelpino,40.4392222,-3.6754444,11,13
564,e96edcdcb17248a84ab5b2877e7e5a74,552 - Ana de Austria - Ignacio Aldecoa,40.4994394,-3.6531502,17,11
565,e9c6d33e7bbab2b4d2b32cdf124234bb,99 - Alcántara - Hermosilla,40.4260391,-3.6740178,14,9
566,eac9cbb3599782c4b2968eaa07b94436,60 - Puerta de Alcalá,40.419752,-3.688398,7,17
567,eaf0beedac2f603a2fd0ff52230fb2bb,2 - Metro Callao,40.4204,-3.7056899999999997,2,24
568,ec19d11f4408aa143dd1e6e4daf2d4ba,520 - Niza - Plaza de Grecia,40.4342806,-3.6081157800000003,8,15
569,ece5be2f9669c3be02fb74cd5f446cde,540 - Estación de tren Fuente de la Mora,40.4845596,-3.6636484,11,12
570,ecf579dbbde5261ab2d92b83a7b9c734,"199 - Fernando el Católico, 61",40.4343611,-3.7149166,5,22
571,ed90cb799f483df4714306f1304d3612,480 - Vicente Muzas - Arturo Soria,40.45903315,-3.6604425500000004,9,14
572,ee18e73c695ccf5ff55f3dcb0efe7725,339 - Estación de tren Las Águilas,40.38132642,-3.78061952,4,20
573,ef7a12a49ac259e357eada06157145f2,160 - Metro Colombia,40.4572466,-3.6763439,14,8
574,efd6c84b385c22a7a6d24651956d18a2,"545 - Zapatoca, 8",40.47285235,-3.63335803,2,20
575,efdc3c6d5148a81a687270441b28b0a3,207 - Plaza de la Remonta,40.4630443,-3.6973352000000004,8,11
576,f1769cb5a48e9acc54c26566c8b88119,260 - Ciudad Universitaria - Fac. de Biología,40.4483322,-3.7272945,8,16
577,f1c3500252a43cf9c1bd58a642f540aa,234 - Metro La Elipa,40.4261278,-3.6510917000000003,6,17
578,f1ddc3795d5fa6ec608c64bc4d0f78d5,28 - Metro Sevilla,40.41806,-3.6984583,2,16
579,f21c0709057c4f7142118344e7e2555d,182 - Parque Roma,40.4186666,-3.6657776999999996,10,12
580,f2261384e17341df1e43d99415790060,270 - Teresa L. Valcárcel - Tte. Cnel. Noreña,40.38862908,-3.69328771,12,12
581,f2bb3efaf3aa4f17caf7a98c429e7240,461 - Plaza Corregidor Ldo. Antonio de Mena,40.4099,-3.6408,20,4
582,f2f5879ec21ef831f819c94c2b249c06,239 - Francos Rodríguez - José Calvo,40.4567132,-3.7078331000000007,18,4
583,f300ebf2b5380b3b3046a0c5be1da25b,347 - Est. tren Mtra Justa Freire-Poli Aluche,40.383554,-3.7686029999999997,0,0
584,f30669cb7b502a9916c5247077d266d9,92 - Claudio Coello - Hermosilla,40.4262945,-3.6865463,5,19
585,f31ae6b253ec90ec8d821c2a9c62fe98,"327 - El Greco, 27 - C. Cultural El Greco",40.40741199,-3.7472615299999994,6,17
586,f35d679b1973281b3ddaa4433f445958,263 - Gran Vía de San Francisco,40.40833880815136,-3.712793282384579,16,7
587,f384e887b50dde02a5f00b726bfbb0bf,627 - Alcalde Andrés Madrid Dávila 92,40.398303,-3.548534,14,8
588,f3b07a53cce4c211c0cf07b7cd730e2c,191 - Metro Diego de León,40.434569387142616,-3.6740777840614403,9,10
589,f3cbdf9b3cab3a27daab311c41d05bea,282 - Parque Retiro - Puerta Reina Mercedes,40.4181327,-3.6787796,12,11
590,f5e8961a986e0482d6176065f9c9f748,426 - Humanes - Benjamín Palencia,40.3952121,-3.64932678,17,7
591,f5fecd719ccf5e8dfa3656396891e64a,"304 - Valle de Mena, 5",40.46962735,-3.7152724500000005,17,6
592,f620d87aa6c9f87751026fe68c2503e4,157 - Plaza de Cuzco,40.4591366,-3.6894151,17,5
593,f71b810e9d1515a149e091bf10469105,271 - Amaltea-Meneses,40.394706,-3.68317,8,15
594,f779bbe2af6dbfcfd2e227ce3b7f9737,95 - Claudio Coello - Villanueva,40.4225428,-3.6869293000000005,9,14
595,f7b7126836c08a5d36aaca8aa595f883,432 - Maquinilla - Tranvía Blanco,40.38078101,-3.6364842400000006,8,16
596,f7fc37e1cdb82a73baeea77f7862a6ad,246 - Metro Iglesia,40.43595788149785,-3.699248472404664,5,22
597,f8d93ee86df44a0d1761170aea1665e1,364 - Metro Opañel,40.38550735,-3.7237806400000006,13,10
598,f8f9a3d6b2c6a8ec3a1faa454b8d680b,611 - María de las Mercedes de Borbón A,40.490908297996654,-3.6121068531215528,19,4
599,f97704b304cad9b324f1f9fba48e70e3,601 - Estación de tren de Fuencarral,40.5015588,-3.6824686999999994,10,14
600,fa98b3222db43e4490d1dae47f1d6567,464 - Univ. Rey Juan Carlos - Campus Madrid,40.40634029,-3.61283416,4,20
601,fbdfb5021df086ddb023595752f94a66,482 - Metro Pueblo Nuevo,40.4356873,-3.6423386,7,16
602,fbf1c9671b62a14c366feb492d81d5e0,194 - Intercambiador de Avenida de América,40.4372638,-3.6771534999999997,7,16
603,fc25b7699f0121f7fdbca3bbc40a28c3,351 - Comandante Fontanes - General Ricardos,40.3951415,-3.7211209,18,5
604,fd3a72ceca2e685e68038a6953c9dce8,24 - Palacio de Oriente,40.417767,-3.7106495,12,6
605,fde4dd989917f6edf0b7f700cf83c901,87 - Ayala - Velázquez,40.427736,-3.6832565999999995,3,20
606,fe29c756388df2f8de6b10864c6fb171,211 - Desengaño - Valverde,40.42059,-3.70239,2,23
607,fe51ff1dd0e5cd8b9a733a4632e06594,622 - Calle Sierra de Albarracin 2,40.386022,-3.671961,9,14
608,fe57449af50d13a07f67e1ed78021452,468 - Caños de San Pedro - San Cipriano,40.403472,-3.6019220000000005,7,13
609,fec1c312e57dabdba9ca8d954ae1b395,308 - María Auxiliadora - Francos Rodríguez,40.45772941,-3.7134614699999995,17,7
